{
"type": "FeatureCollection",
"copyright": "The data included in this document is from www.openstreetmap.org. The data is made available under ODbL.",
"crs": { "type": "name", "properties": { "name": "urn:ogc:def:crs:EPSG::4674" } },

"features": [
{ "type": "Feature", "properties": { "name": "Aeroporto Internacional de Cruzeiro do Sul" }, "geometry": { "type": "Point", "coordinates": [ -72.771308156033882, -7.599308357769338 ] } },
{ "type": "Feature", "properties": { "name": "Aeroporto Municipal de Ipixuna" }, "geometry": { "type": "Point", "coordinates": [ -71.68779828981144, -7.036413886198478 ] } },
{ "type": "Feature", "properties": { "name": "Aeropuerto de Cobija" }, "geometry": { "type": "Point", "coordinates": [ -68.781775999728637, -11.038585943796182 ] } },
{ "type": "Feature", "properties": { "name": "Aeroporto de Xapuri" }, "geometry": { "type": "Point", "coordinates": [ -68.48589882317107, -10.66376882271951 ] } },
{ "type": "Feature", "properties": { "name": "Aeroporto de São Gabriel da Cachoeira" }, "geometry": { "type": "Point", "coordinates": [ -66.986555734628979, -0.148962776691196 ] } },
{ "type": "Feature", "properties": { "name": "Coari Airport" }, "geometry": { "type": "Point", "coordinates": [ -63.131860901330306, -4.134055023257278 ] } },
{ "type": "Feature", "properties": { "name": "Aeroporto de Barcelos" }, "geometry": { "type": "Point", "coordinates": [ -62.919929559236131, -0.981174283755884 ] } },
{ "type": "Feature", "properties": { "name": "Aeropuerto Santa Elena de Uairén" }, "geometry": { "type": "Point", "coordinates": [ -61.144334077027153, 4.555138636490503 ] } },
{ "type": "Feature", "properties": { "name": "Aeroporto Internacional Brigadeiro Eduardo Gomes–Manaus" }, "geometry": { "type": "Point", "coordinates": [ -60.045735212299604, -3.038085340892356 ] } },
{ "type": "Feature", "properties": { "name": "Flores" }, "geometry": { "type": "Point", "coordinates": [ -60.020828474118872, -3.072641416097054 ] } },
{ "type": "Feature", "properties": { "name": "Bahia Negra" }, "geometry": { "type": "Point", "coordinates": [ -58.170440264985892, -20.230477989563742 ] } },
{ "type": "Feature", "properties": { "name": "Jair Feliciano de Deus Airport" }, "geometry": { "type": "Point", "coordinates": [ -58.108000648397571, -15.692976377307023 ] } },
{ "type": "Feature", "properties": { "name": "Aeroporto Internacional de Corumbá" }, "geometry": { "type": "Point", "coordinates": [ -57.670760789777226, -19.012596388690973 ] } },
{ "type": "Feature", "properties": { "name": "Arenhart Aviação Agrícola" }, "geometry": { "type": "Point", "coordinates": [ -57.141445084514849, -29.890182653071879 ] } },
{ "type": "Feature", "properties": { "name": "Aeroporto Internacional Rubem Berta" }, "geometry": { "type": "Point", "coordinates": [ -57.036269346514374, -29.782917127229723 ] } },
{ "type": "Feature", "properties": { "name": "Aeródromo Nossa Senhora do Loreto" }, "geometry": { "type": "Point", "coordinates": [ -56.95989864527197, -29.728279668095876 ] } },
{ "type": "Feature", "properties": { "name": "Aeroporto de Itaqui" }, "geometry": { "type": "Point", "coordinates": [ -56.53908297722473, -29.17314133932021 ] } },
{ "type": "Feature", "properties": { "name": "Aeródromo Mata-Fome" }, "geometry": { "type": "Point", "coordinates": [ -56.544085895397728, -29.186519497002575 ] } },
{ "type": "Feature", "properties": { "name": "Aeroporto Regional de Bonito" }, "geometry": { "type": "Point", "coordinates": [ -56.45141657121615, -21.245636969971333 ] } },
{ "type": "Feature", "properties": { "name": "Trombetas Airport" }, "geometry": { "type": "Point", "coordinates": [ -56.395540887973837, -1.489029414221869 ] } },
{ "type": "Feature", "properties": { "name": "Aeródromo da Estância Itapororó" }, "geometry": { "type": "Point", "coordinates": [ -56.296382719612581, -29.43711793584319 ] } },
{ "type": "Feature", "properties": { "name": "Aeródromo São João" }, "geometry": { "type": "Point", "coordinates": [ -56.212234935839071, -29.084184005023815 ] } },
{ "type": "Feature", "properties": { "name": "Aeroporto Internacional Marechal Rondon" }, "geometry": { "type": "Point", "coordinates": [ -56.110045384792116, -15.659282569376 ] } },
{ "type": "Feature", "properties": { "name": "Aeroporto João Manuel" }, "geometry": { "type": "Point", "coordinates": [ -56.034244455926121, -28.653172281595658 ] } },
{ "type": "Feature", "properties": { "name": "Aeropel Aero Operações Agrícolas" }, "geometry": { "type": "Point", "coordinates": [ -55.989859794638853, -28.710825300418765 ] } },
{ "type": "Feature", "properties": { "name": "Aeroporto Alegrete Novo" }, "geometry": { "type": "Point", "coordinates": [ -55.892741022642433, -29.812989709010161 ] } },
{ "type": "Feature", "properties": { "name": "Aeródromo Boqueirão Alegre" }, "geometry": { "type": "Point", "coordinates": [ -55.846165877082086, -30.253963515679949 ] } },
{ "type": "Feature", "properties": { "name": "Aeródromo Chico Ledur" }, "geometry": { "type": "Point", "coordinates": [ -55.71494144236339, -29.817742060667786 ] } },
{ "type": "Feature", "properties": { "name": "Aeroporto Internacional de Ponta Porã" }, "geometry": { "type": "Point", "coordinates": [ -55.703436528741143, -22.55006155904714 ] } },
{ "type": "Feature", "properties": { "name": "Itagro Aviação Agrícola" }, "geometry": { "type": "Point", "coordinates": [ -55.695808495966389, -29.780703205927434 ] } },
{ "type": "Feature", "properties": { "name": "Aeroporto de Santana do Livramento" }, "geometry": { "type": "Point", "coordinates": [ -55.62491772554187, -30.836564422186463 ] } },
{ "type": "Feature", "properties": { "name": "Aeroclube de Santana do Livramento" }, "geometry": { "type": "Point", "coordinates": [ -55.578038964079234, -30.821842508440561 ] } },
{ "type": "Feature", "properties": { "name": "Aeródromo da Fazenda da Paz" }, "geometry": { "type": "Point", "coordinates": [ -55.567418253747789, -30.844454606127037 ] } },
{ "type": "Feature", "properties": { "name": "Fazenda Marabá Airport" }, "geometry": { "type": "Point", "coordinates": [ -55.121602188105314, -15.274706923128916 ] } },
{ "type": "Feature", "properties": { "name": "Aeródromo Música" }, "geometry": { "type": "Point", "coordinates": [ -55.081655716863658, -30.934825089529667 ] } },
{ "type": "Feature", "properties": { "name": "Aeroporto de São Luiz Gonzaga" }, "geometry": { "type": "Point", "coordinates": [ -55.036388839053927, -28.376298731519203 ] } },
{ "type": "Feature", "properties": { "name": "Aeroporto de Cacequi" }, "geometry": { "type": "Point", "coordinates": [ -54.93013898750246, -29.899911749673162 ] } },
{ "type": "Feature", "properties": { "name": "Aeroporto de Rosário do Sul" }, "geometry": { "type": "Point", "coordinates": [ -54.922623548818116, -30.276143356351199 ] } },
{ "type": "Feature", "properties": { "name": "Fazenda Santo Antônio Airport" }, "geometry": { "type": "Point", "coordinates": [ -54.900537630803846, -15.305242954223878 ] } },
{ "type": "Feature", "properties": { "name": "Aeroporto de Santiago" }, "geometry": { "type": "Point", "coordinates": [ -54.840833688796764, -29.214500227041221 ] } },
{ "type": "Feature", "properties": { "name": "Aeroporto Municipal de Rondonópolis Maestro Marinho Franco" }, "geometry": { "type": "Point", "coordinates": [ -54.724816162164224, -16.584204898749928 ] } },
{ "type": "Feature", "properties": { "name": "Aeroporto Fazenda São José" }, "geometry": { "type": "Point", "coordinates": [ -54.716862071497346, -20.572424130353539 ] } },
{ "type": "Feature", "properties": { "name": "Aeroporto de Coxim" }, "geometry": { "type": "Point", "coordinates": [ -54.715422831136124, -18.477827060647641 ] } },
{ "type": "Feature", "properties": { "name": "Aeroporto Internacional de Campo Grande" }, "geometry": { "type": "Point", "coordinates": [ -54.682801210616191, -20.47185699326165 ] } },
{ "type": "Feature", "properties": { "name": "Aeródromo de Dom Pedrito" }, "geometry": { "type": "Point", "coordinates": [ -54.668350347109744, -30.995351590834119 ] } },
{ "type": "Feature", "properties": { "name": "Fazenda Araruna Airport" }, "geometry": { "type": "Point", "coordinates": [ -54.641099827513834, -17.587986555669936 ] } },
{ "type": "Feature", "properties": { "name": "Teruel Ipanema Estância Airport" }, "geometry": { "type": "Point", "coordinates": [ -54.59407759004133, -20.604016014828762 ] } },
{ "type": "Feature", "properties": { "name": "Estância Hércules" }, "geometry": { "type": "Point", "coordinates": [ -54.598262378210144, -25.460376509188006 ] } },
{ "type": "Feature", "properties": { "name": "Aeroporto de Pedro Gomes" }, "geometry": { "type": "Point", "coordinates": [ -54.547951726409721, -18.0872742954042 ] } },
{ "type": "Feature", "properties": { "name": "Aeroporto Santa Maria" }, "geometry": { "type": "Point", "coordinates": [ -54.523763711743719, -20.505091557968559 ] } },
{ "type": "Feature", "properties": { "name": "Aeroporto Luís Alberto Lehr" }, "geometry": { "type": "Point", "coordinates": [ -54.522368891835143, -27.906336769028723 ] } },
{ "type": "Feature", "properties": { "name": "Aeródromo Refúgio" }, "geometry": { "type": "Point", "coordinates": [ -54.46869223934123, -30.919318655366649 ] } },
{ "type": "Feature", "properties": { "name": "Aeroporto de Salto del Guairá" }, "geometry": { "type": "Point", "coordinates": [ -54.351375355248749, -24.03229711272926 ] } },
{ "type": "Feature", "properties": { "name": "Aeroporto Walter Bündchen" }, "geometry": { "type": "Point", "coordinates": [ -54.339249620551058, -27.638267026217985 ] } },
{ "type": "Feature", "properties": { "name": "Aeroporto Municipal de Primavera do Leste" }, "geometry": { "type": "Point", "coordinates": [ -54.330207266571826, -15.563417155837845 ] } },
{ "type": "Feature", "properties": { "name": "Aeroporto de São Gabriel" }, "geometry": { "type": "Point", "coordinates": [ -54.269027456083869, -30.346635475278958 ] } },
{ "type": "Feature", "properties": { "name": "Aeroporto Sepé Tiaraju" }, "geometry": { "type": "Point", "coordinates": [ -54.169332937688516, -28.282086370947265 ] } },
{ "type": "Feature", "properties": { "name": "Aeromis Aviação Agrícola" }, "geometry": { "type": "Point", "coordinates": [ -54.156661469867224, -31.292247028849861 ] } },
{ "type": "Feature", "properties": { "name": "Aeroclube de Bagé" }, "geometry": { "type": "Point", "coordinates": [ -54.135739742367996, -31.32695861225762 ] } },
{ "type": "Feature", "properties": { "name": "Aeroporto Internacional Comandante Gustavo Kraemer" }, "geometry": { "type": "Point", "coordinates": [ -54.112791169994871, -31.390323795615693 ] } },
{ "type": "Feature", "properties": { "name": "Aeroporto Ana Paula" }, "geometry": { "type": "Point", "coordinates": [ -54.089070313960455, -31.734368102879269 ] } },
{ "type": "Feature", "properties": { "name": "Aeroporto de Três Passos" }, "geometry": { "type": "Point", "coordinates": [ -53.898287604659721, -27.512522445932444 ] } },
{ "type": "Feature", "properties": { "name": "Aeroporto João Batista Bos Filho" }, "geometry": { "type": "Point", "coordinates": [ -53.84769980323393, -28.368894247799378 ] } },
{ "type": "Feature", "properties": { "name": "Aeroporto de Campo Novo" }, "geometry": { "type": "Point", "coordinates": [ -53.809222013851077, -27.666118450214178 ] } },
{ "type": "Feature", "properties": { "name": "Aeroporto de Júlio de Castilhos" }, "geometry": { "type": "Point", "coordinates": [ -53.743166085244418, -29.153438201700315 ] } },
{ "type": "Feature", "properties": { "name": "Aeroporto de Santa Maria" }, "geometry": { "type": "Point", "coordinates": [ -53.688767696918639, -29.712854660227716 ] } },
{ "type": "Feature", "properties": { "name": "Aeródromo de Candiota" }, "geometry": { "type": "Point", "coordinates": [ -53.692177394009832, -31.494125389660855 ] } },
{ "type": "Feature", "properties": { "name": "Aeroporto de Dionísio Cerqueira" }, "geometry": { "type": "Point", "coordinates": [ -53.631180384122494, -26.288560137112743 ] } },
{ "type": "Feature", "properties": { "name": "Aeroclube de Cruz Alta" }, "geometry": { "type": "Point", "coordinates": [ -53.61122055510355, -28.658808102285274 ] } },
{ "type": "Feature", "properties": { "name": "Aeroporto Major Thales Faria Brenner" }, "geometry": { "type": "Point", "coordinates": [ -53.579993168644286, -30.18162133923077 ] } },
{ "type": "Feature", "properties": { "name": "Cascavel Airport" }, "geometry": { "type": "Point", "coordinates": [ -53.501976196135864, -25.000321281856042 ] } },
{ "type": "Feature", "properties": { "name": "Aeroporto de Caçapava do Sul" }, "geometry": { "type": "Point", "coordinates": [ -53.461347538278105, -30.548662060279177 ] } },
{ "type": "Feature", "properties": { "name": "Aeroporto de Frederico Westphalen" }, "geometry": { "type": "Point", "coordinates": [ -53.402542965786608, -27.34797847696478 ] } },
{ "type": "Feature", "properties": { "name": "Aeroporto de Jaguarão" }, "geometry": { "type": "Point", "coordinates": [ -53.383150360853939, -32.541656008263821 ] } },
{ "type": "Feature", "properties": { "name": "Independência Airport" }, "geometry": { "type": "Point", "coordinates": [ -53.383607032453568, -22.278804016557089 ] } },
{ "type": "Feature", "properties": { "name": "Aeroporto de Santa Vitória do Palmar" }, "geometry": { "type": "Point", "coordinates": [ -53.345659154249063, -33.502107913757591 ] } },
{ "type": "Feature", "properties": { "name": "Aeroporto de Palmeira das Missões" }, "geometry": { "type": "Point", "coordinates": [ -53.329554256848404, -27.901751720243038 ] } },
{ "type": "Feature", "properties": { "name": "Fazenda Esperança Airport" }, "geometry": { "type": "Point", "coordinates": [ -53.311831055145888, -22.275307914502918 ] } },
{ "type": "Feature", "properties": { "name": "Aeródromo Águas Frias" }, "geometry": { "type": "Point", "coordinates": [ -53.272800071754325, -27.217450161601164 ] } },
{ "type": "Feature", "properties": { "name": "Aeroporto Nova Jacuí" }, "geometry": { "type": "Point", "coordinates": [ -53.215183389869644, -29.118163010994206 ] } },
{ "type": "Feature", "properties": { "name": "Aeródromo da Fazenda do Cedro" }, "geometry": { "type": "Point", "coordinates": [ -53.196649712904104, -28.108698636922167 ] } },
{ "type": "Feature", "properties": { "name": "Aeroporto Attillio Accorsi \/ Loanda" }, "geometry": { "type": "Point", "coordinates": [ -53.149057837238516, -22.917338514213679 ] } },
{ "type": "Feature", "properties": { "name": "Aeroporto de Ibirubá" }, "geometry": { "type": "Point", "coordinates": [ -53.078213435097609, -28.604465140404091 ] } },
{ "type": "Feature", "properties": { "name": "Aeroporto de Arroio Grande" }, "geometry": { "type": "Point", "coordinates": [ -53.056287606015779, -32.229683426396605 ] } },
{ "type": "Feature", "properties": { "name": "Aeroporto de Sobradinho" }, "geometry": { "type": "Point", "coordinates": [ -52.990889705687344, -29.396968688578255 ] } },
{ "type": "Feature", "properties": { "name": "Aeródromo Plá e Silva" }, "geometry": { "type": "Point", "coordinates": [ -52.976679153098424, -33.142880761295707 ] } },
{ "type": "Feature", "properties": { "name": "Usina Porto Primavera" }, "geometry": { "type": "Point", "coordinates": [ -52.972061601732563, -22.525694199720252 ] } },
{ "type": "Feature", "properties": { "name": "Fazenda Olho D`Água Airport" }, "geometry": { "type": "Point", "coordinates": [ -52.971053709149963, -16.144914996263051 ] } },
{ "type": "Feature", "properties": { "name": "Aeroporto Nero Moura" }, "geometry": { "type": "Point", "coordinates": [ -52.94073326086405, -30.002613487148633 ] } },
{ "type": "Feature", "properties": { "name": "Aeroporto de Sarandi" }, "geometry": { "type": "Point", "coordinates": [ -52.863418021711986, -27.982227430682492 ] } },
{ "type": "Feature", "properties": { "name": "Aeroporto de Espumoso" }, "geometry": { "type": "Point", "coordinates": [ -52.856936384484946, -28.738758767924583 ] } },
{ "type": "Feature", "properties": { "name": "Aeroporto de Carazinho" }, "geometry": { "type": "Point", "coordinates": [ -52.818704659054006, -28.322155642874389 ] } },
{ "type": "Feature", "properties": { "name": "Aeroporto Armando Reginatto" }, "geometry": { "type": "Point", "coordinates": [ -52.76338746957579, -27.368187725010223 ] } },
{ "type": "Feature", "properties": { "name": "Aeroporto Municipal de Pato Branco" }, "geometry": { "type": "Point", "coordinates": [ -52.69409444310881, -26.216948171299919 ] } },
{ "type": "Feature", "properties": { "name": "PCH Buriti Airport" }, "geometry": { "type": "Point", "coordinates": [ -52.690165242751135, -19.341450485732796 ] } },
{ "type": "Feature", "properties": { "name": "Aeroporto de Chapecó" }, "geometry": { "type": "Point", "coordinates": [ -52.657089068172887, -27.134031680941781 ] } },
{ "type": "Feature", "properties": { "name": "Aeroporto de Encruzilhada do Sul" }, "geometry": { "type": "Point", "coordinates": [ -52.582701436138912, -30.559815016537957 ] } },
{ "type": "Feature", "properties": { "name": "Mineiros Airport" }, "geometry": { "type": "Point", "coordinates": [ -52.556490751428015, -17.551862092776094 ] } },
{ "type": "Feature", "properties": { "name": "Aeroporto de Soledade" }, "geometry": { "type": "Point", "coordinates": [ -52.540442675351677, -28.863353943755417 ] } },
{ "type": "Feature", "properties": { "name": "Aeroclube de Passo Fundo" }, "geometry": { "type": "Point", "coordinates": [ -52.518083886453127, -28.248003130124939 ] } },
{ "type": "Feature", "properties": { "name": "Aeródromo da Estância da Gruta" }, "geometry": { "type": "Point", "coordinates": [ -52.478102398844058, -31.942247610824612 ] } },
{ "type": "Feature", "properties": { "name": "Aeródromo da Fazenda Santa Maria" }, "geometry": { "type": "Point", "coordinates": [ -52.463857574846656, -31.928966762708072 ] } },
{ "type": "Feature", "properties": { "name": "Aeródromo Comandante Marilda Zaiden de Mesquita" }, "geometry": { "type": "Point", "coordinates": [ -52.451477486699744, -31.77350078541533 ] } },
{ "type": "Feature", "properties": { "name": "Aeródromo Nova Era" }, "geometry": { "type": "Point", "coordinates": [ -52.442609942189115, -30.212135369874126 ] } },
{ "type": "Feature", "properties": { "name": "Aeroporto de Santa Cruz do Sul" }, "geometry": { "type": "Point", "coordinates": [ -52.411958779016928, -29.684435534251673 ] } },
{ "type": "Feature", "properties": { "name": "Aeródromo do Sítio Enel" }, "geometry": { "type": "Point", "coordinates": [ -52.366866139484983, -30.136687796581572 ] } },
{ "type": "Feature", "properties": { "name": "Aeroporto de Rio Pardo" }, "geometry": { "type": "Point", "coordinates": [ -52.359960666627785, -29.973221884334233 ] } },
{ "type": "Feature", "properties": { "name": "Aeroporto Coronel Geraldo Guia de Aquino" }, "geometry": { "type": "Point", "coordinates": [ -52.35705045489081, -24.010052767979591 ] } },
{ "type": "Feature", "properties": { "name": "Particular" }, "geometry": { "type": "Point", "coordinates": [ -52.339725831352418, -20.662254874624846 ] } },
{ "type": "Feature", "properties": { "name": "Aeroporto Lauro Kurtz" }, "geometry": { "type": "Point", "coordinates": [ -52.329551368174144, -28.24447890141272 ] } },
{ "type": "Feature", "properties": { "name": "Aeroporto Internacional de Pelotas" }, "geometry": { "type": "Point", "coordinates": [ -52.325506111281747, -31.71948493295141 ] } },
{ "type": "Feature", "properties": { "name": "Aeroporto Mun. de Doverlândia" }, "geometry": { "type": "Point", "coordinates": [ -52.317796324764721, -16.714433813384872 ] } },
{ "type": "Feature", "properties": { "name": "Aeroporto Federal Comandante Kraemer" }, "geometry": { "type": "Point", "coordinates": [ -52.273368349589333, -27.662447646083187 ] } },
{ "type": "Feature", "properties": { "name": "Fazenda Três Companheiros Airport" }, "geometry": { "type": "Point", "coordinates": [ -52.252675849805563, -16.682693966978071 ] } },
{ "type": "Feature", "properties": { "name": "Aeródromo da Fazenda Palma" }, "geometry": { "type": "Point", "coordinates": [ -52.207580473066351, -31.654507011903338 ] } },
{ "type": "Feature", "properties": { "name": "Aeroporto Gustavo Cramer" }, "geometry": { "type": "Point", "coordinates": [ -52.165909394982421, -32.08366674385416 ] } },
{ "type": "Feature", "properties": { "name": "Aeroporto Estadual Geraldo Moacir Bordon" }, "geometry": { "type": "Point", "coordinates": [ -52.144065695250212, -21.775395656764303 ] } },
{ "type": "Feature", "properties": { "name": "Aeroporto Olavo Cecco Rigon" }, "geometry": { "type": "Point", "coordinates": [ -52.051782457610834, -27.180416335156764 ] } },
{ "type": "Feature", "properties": { "name": "Aeroporto de São Lourenço do Sul" }, "geometry": { "type": "Point", "coordinates": [ -52.032487705800399, -31.383839817924567 ] } },
{ "type": "Feature", "properties": { "name": "Aeroporto Regional de Maringá" }, "geometry": { "type": "Point", "coordinates": [ -52.014738516880485, -23.476678016873592 ] } },
{ "type": "Feature", "properties": { "name": "Aeroporto Fazenda Reserva" }, "geometry": { "type": "Point", "coordinates": [ -52.014434358627874, -25.85031875733193 ] } },
{ "type": "Feature", "properties": { "name": "Aeródromo Santa Terezinha" }, "geometry": { "type": "Point", "coordinates": [ -51.958912215483267, -28.052051188995172 ] } },
{ "type": "Feature", "properties": { "name": "Aeroporto de Estrela" }, "geometry": { "type": "Point", "coordinates": [ -51.935025958251025, -29.454389392488725 ] } },
{ "type": "Feature", "properties": { "name": "Pista de pouso \"particular\" de terra" }, "geometry": { "type": "Point", "coordinates": [ -51.925039299232388, -22.063200261303624 ] } },
{ "type": "Feature", "properties": { "name": "Aeroporto de Presidente Venceslau" }, "geometry": { "type": "Point", "coordinates": [ -51.88395578456376, -21.8937361989531 ] } },
{ "type": "Feature", "properties": { "name": "Aeroporto de Guaporé" }, "geometry": { "type": "Point", "coordinates": [ -51.854766383856699, -28.895016084442343 ] } },
{ "type": "Feature", "properties": { "name": "Novo Aeroporto Municipal de Caiapônia" }, "geometry": { "type": "Point", "coordinates": [ -51.850984979051312, -16.927376643103837 ] } },
{ "type": "Feature", "properties": { "name": "Aeroporto Municipal de Caiapônia" }, "geometry": { "type": "Point", "coordinates": [ -51.823434180903519, -16.968616321816643 ] } },
{ "type": "Feature", "properties": { "name": "Cassilândia Airport" }, "geometry": { "type": "Point", "coordinates": [ -51.678522136829514, -19.14625442833945 ] } },
{ "type": "Feature", "properties": { "name": "Foz do Areia Airport" }, "geometry": { "type": "Point", "coordinates": [ -51.639940142573309, -25.981607186782835 ] } },
{ "type": "Feature", "properties": { "name": "Aeródromo Ilmo Aloísio Blube" }, "geometry": { "type": "Point", "coordinates": [ -51.601948039119087, -28.804112522664916 ] } },
{ "type": "Feature", "properties": { "name": "Aeródromo da Fazenda Arco de Canto" }, "geometry": { "type": "Point", "coordinates": [ -51.597652000569219, -28.550475196266969 ] } },
{ "type": "Feature", "properties": { "name": "Aeródromo da Praia Velha" }, "geometry": { "type": "Point", "coordinates": [ -51.577165751660161, -31.126623988022107 ] } },
{ "type": "Feature", "properties": { "name": "Aeroclube de Veranópolis" }, "geometry": { "type": "Point", "coordinates": [ -51.566511009299525, -28.935032344350297 ] } },
{ "type": "Feature", "properties": { "name": "Aeroclube de Bento Gonçalves" }, "geometry": { "type": "Point", "coordinates": [ -51.540399335796373, -29.147449152599165 ] } },
{ "type": "Feature", "properties": { "name": "Aeroporto de Garibaldi" }, "geometry": { "type": "Point", "coordinates": [ -51.531970929354941, -29.268732934655759 ] } },
{ "type": "Feature", "properties": { "name": "Aeroporto Tancredo Thomaz de Faria" }, "geometry": { "type": "Point", "coordinates": [ -51.522562394115809, -25.388134568361551 ] } },
{ "type": "Feature", "properties": { "name": "Aeródromo Capão Alto" }, "geometry": { "type": "Point", "coordinates": [ -51.526418351600896, -30.676808885509747 ] } },
{ "type": "Feature", "properties": { "name": "Aeroporto de Montenegro" }, "geometry": { "type": "Point", "coordinates": [ -51.489352062193561, -29.720158301935115 ] } },
{ "type": "Feature", "properties": { "name": "Estância Machado" }, "geometry": { "type": "Point", "coordinates": [ -51.454829306001145, -22.103792095635374 ] } },
{ "type": "Feature", "properties": { "name": "Aeroclube de Eldorado do Sul" }, "geometry": { "type": "Point", "coordinates": [ -51.443653047732951, -30.051245596989883 ] } },
{ "type": "Feature", "properties": { "name": "Aeródromo Astral" }, "geometry": { "type": "Point", "coordinates": [ -51.437300843420473, -30.061172499284602 ] } },
{ "type": "Feature", "properties": { "name": "Aeroporto Estadual de Presidente Prudente" }, "geometry": { "type": "Point", "coordinates": [ -51.425195097882415, -22.175029444235751 ] } },
{ "type": "Feature", "properties": { "name": "Aeródromo Centeno" }, "geometry": { "type": "Point", "coordinates": [ -51.430720485901233, -30.746073440352905 ] } },
{ "type": "Feature", "properties": { "name": "Aeródromo de Eldorado do Sul" }, "geometry": { "type": "Point", "coordinates": [ -51.410921122650969, -30.072149714688045 ] } },
{ "type": "Feature", "properties": { "name": "Fazenda Canadazinho Airport" }, "geometry": { "type": "Point", "coordinates": [ -51.405223224407457, -15.044261790785919 ] } },
{ "type": "Feature", "properties": { "name": "Fazenda Três Marias do Água Limpa Airport" }, "geometry": { "type": "Point", "coordinates": [ -51.39396953978455, -15.073436711960237 ] } },
{ "type": "Feature", "properties": { "name": "Aeropark José Martins da Silva" }, "geometry": { "type": "Point", "coordinates": [ -51.34890239301096, -22.225436613231462 ] } },
{ "type": "Feature", "properties": { "name": "Fazenda Vanguarda Airport" }, "geometry": { "type": "Point", "coordinates": [ -51.333214331169096, -14.980594427352466 ] } },
{ "type": "Feature", "properties": { "name": "Fazenda Vanguarda Airport" }, "geometry": { "type": "Point", "coordinates": [ -51.278498318886669, -14.910775227458684 ] } },
{ "type": "Feature", "properties": { "name": "Fazenda São Paulo - Retiro Santa Maria Airport" }, "geometry": { "type": "Point", "coordinates": [ -51.251483350608247, -15.142421801586673 ] } },
{ "type": "Feature", "properties": { "name": "Aeroporto Hugo Cantergiani" }, "geometry": { "type": "Point", "coordinates": [ -51.187649954902938, -29.19687299931055 ] } },
{ "type": "Feature", "properties": { "name": "Aeródromo de Belém Novo" }, "geometry": { "type": "Point", "coordinates": [ -51.181209132533198, -30.187862750957763 ] } },
{ "type": "Feature", "properties": { "name": "Aeroporto Internacional Salgado Filho" }, "geometry": { "type": "Point", "coordinates": [ -51.174273747214436, -29.995106097078978 ] } },
{ "type": "Feature", "properties": { "name": "Fazenda Nova Floresta" }, "geometry": { "type": "Point", "coordinates": [ -51.177783181764539, -21.891947105353502 ] } },
{ "type": "Feature", "properties": { "name": "Base Aérea de Canoas" }, "geometry": { "type": "Point", "coordinates": [ -51.142278971860989, -29.940967942961361 ] } },
{ "type": "Feature", "properties": { "name": "Aeroporto Municipal Ângelo Ponzoni" }, "geometry": { "type": "Point", "coordinates": [ -51.141803717933826, -26.999757599655769 ] } },
{ "type": "Feature", "properties": { "name": "Aeroporto Governador José Richa" }, "geometry": { "type": "Point", "coordinates": [ -51.132222653797257, -23.332047958593726 ] } },
{ "type": "Feature", "properties": { "name": "Aeroporto de Novo Hamburgo" }, "geometry": { "type": "Point", "coordinates": [ -51.08120395108449, -29.697037676240654 ] } },
{ "type": "Feature", "properties": { "name": "Aeroporto Municipal" }, "geometry": { "type": "Point", "coordinates": [ -51.080647283899893, -20.623319455376055 ] } },
{ "type": "Feature", "properties": { "name": "Aeroporto Regional de Vacaria" }, "geometry": { "type": "Point", "coordinates": [ -51.024401097699055, -28.431354364604804 ] } },
{ "type": "Feature", "properties": { "name": "General Leite de Castro Airport" }, "geometry": { "type": "Point", "coordinates": [ -50.956371289457898, -17.834882303444264 ] } },
{ "type": "Feature", "properties": { "name": "Fazenda Congonhas Airport" }, "geometry": { "type": "Point", "coordinates": [ -50.950832962548866, -19.662638868673394 ] } },
{ "type": "Feature", "properties": { "name": "Aeroporto Carlos Alberto da Costa Neves" }, "geometry": { "type": "Point", "coordinates": [ -50.940370028415948, -26.788968862527184 ] } },
{ "type": "Feature", "properties": { "name": "Aeroporto de Vacaria" }, "geometry": { "type": "Point", "coordinates": [ -50.919474823343734, -28.510063150906404 ] } },
{ "type": "Feature", "properties": { "name": "Aeroporto de Mostardas" }, "geometry": { "type": "Point", "coordinates": [ -50.908354943154215, -31.101423750139663 ] } },
{ "type": "Feature", "properties": { "name": "Aeroporto de Canela" }, "geometry": { "type": "Point", "coordinates": [ -50.830542675165702, -29.369164354866509 ] } },
{ "type": "Feature", "properties": { "name": "Fazenda Santa Marina" }, "geometry": { "type": "Point", "coordinates": [ -50.787715447667935, -20.847602683582604 ] } },
{ "type": "Feature", "properties": { "name": "Guararapes" }, "geometry": { "type": "Point", "coordinates": [ -50.652451779389999, -21.262633114472067 ] } },
{ "type": "Feature", "properties": { "name": "Companhia Agrícola de Quatá" }, "geometry": { "type": "Point", "coordinates": [ -50.639314882607692, -22.285839320984842 ] } },
{ "type": "Feature", "properties": { "name": "SDUQ - Aeroporto Paraguaçu Paulista" }, "geometry": { "type": "Point", "coordinates": [ -50.608244433946524, -22.428170929457362 ] } },
{ "type": "Feature", "properties": { "name": "Aeroporto Lauro Antônio da Costa" }, "geometry": { "type": "Point", "coordinates": [ -50.604827139900273, -27.287029165009283 ] } },
{ "type": "Feature", "properties": { "name": "Santa Helena de Goiás" }, "geometry": { "type": "Point", "coordinates": [ -50.592966564634239, -17.78464994082147 ] } },
{ "type": "Feature", "properties": { "name": "Aeroporto Fazenda Bandeira" }, "geometry": { "type": "Point", "coordinates": [ -50.596715610594259, -21.999597131391031 ] } },
{ "type": "Feature", "properties": { "name": "Mozarlândia Airport" }, "geometry": { "type": "Point", "coordinates": [ -50.564573887255392, -14.769148286277872 ] } },
{ "type": "Feature", "properties": { "name": "Fazenda Guadalupe" }, "geometry": { "type": "Point", "coordinates": [ -50.525656916005182, -20.983609488273405 ] } },
{ "type": "Feature", "properties": { "name": "Aeródromo de Capivari" }, "geometry": { "type": "Point", "coordinates": [ -50.51092741951274, -30.134437653426652 ] } },
{ "type": "Feature", "properties": { "name": "Aeroporto Estadual de Tupã José Vicente Faria Lima" }, "geometry": { "type": "Point", "coordinates": [ -50.504769782117123, -21.889553111472868 ] } },
{ "type": "Feature", "properties": { "name": "Aerolis Aeroagrícola Lisboa" }, "geometry": { "type": "Point", "coordinates": [ -50.467448323367947, -30.53653083122375 ] } },
{ "type": "Feature", "properties": { "name": "Aeroporto Assis - Marcelo Pires Holzhausen" }, "geometry": { "type": "Point", "coordinates": [ -50.455166112407163, -22.637895139197237 ] } },
{ "type": "Feature", "properties": { "name": "Aeroporto de Bom Jesus" }, "geometry": { "type": "Point", "coordinates": [ -50.453484905686253, -28.602204588516972 ] } },
{ "type": "Feature", "properties": { "name": "Aeroporto Estadual de Araçatuba Dario Guarita" }, "geometry": { "type": "Point", "coordinates": [ -50.425017986671286, -21.140545461438769 ] } },
{ "type": "Feature", "properties": { "name": "LS Aviação Agrícola" }, "geometry": { "type": "Point", "coordinates": [ -50.424088555117905, -30.226694448093649 ] } },
{ "type": "Feature", "properties": { "name": "Santana do Araguaia Airport" }, "geometry": { "type": "Point", "coordinates": [ -50.328572068338367, -9.319951427328542 ] } },
{ "type": "Feature", "properties": { "name": "Aeródromo José Doná" }, "geometry": { "type": "Point", "coordinates": [ -50.30557362919194, -21.217258133534429 ] } },
{ "type": "Feature", "properties": { "name": "Aeroporto de Osório" }, "geometry": { "type": "Point", "coordinates": [ -50.248554716907144, -29.901754951338546 ] } },
{ "type": "Feature", "properties": { "name": "São Miguel do Araguaia Airport" }, "geometry": { "type": "Point", "coordinates": [ -50.200348825710108, -13.330953192262969 ] } },
{ "type": "Feature", "properties": { "name": "Aeródromo de Cambará do Sul" }, "geometry": { "type": "Point", "coordinates": [ -50.076080854801681, -29.000634724138457 ] } },
{ "type": "Feature", "properties": { "name": "Aeroporto de Capão da Canoa" }, "geometry": { "type": "Point", "coordinates": [ -50.038095281377863, -29.7643574077902 ] } },
{ "type": "Feature", "properties": { "name": "Aeroporto de Redenção" }, "geometry": { "type": "Point", "coordinates": [ -49.978563169249114, -8.02994543244189 ] } },
{ "type": "Feature", "properties": { "name": "Fazenda Vinte de Maio" }, "geometry": { "type": "Point", "coordinates": [ -49.97188855579801, -21.808835101916127 ] } },
{ "type": "Feature", "properties": { "name": "Castro Airport" }, "geometry": { "type": "Point", "coordinates": [ -49.959531977617686, -24.806971996648414 ] } },
{ "type": "Feature", "properties": { "name": "Aeroporto Estadual Jornalista Benedito Pimentel" }, "geometry": { "type": "Point", "coordinates": [ -49.912886061543091, -22.966932149944299 ] } },
{ "type": "Feature", "properties": { "name": "Aeroporto Agnaldo Pereira Lima (Siqueira Campos Airport)" }, "geometry": { "type": "Point", "coordinates": [ -49.816685764358141, -23.67432444596685 ] } },
{ "type": "Feature", "properties": { "name": "Aeroporto de Torres" }, "geometry": { "type": "Point", "coordinates": [ -49.808079101549474, -29.414423982100551 ] } },
{ "type": "Feature", "properties": { "name": "Fazenda Santa Rosa Airport" }, "geometry": { "type": "Point", "coordinates": [ -49.756795662259556, -13.995212903731414 ] } },
{ "type": "Feature", "properties": { "name": "Lins" }, "geometry": { "type": "Point", "coordinates": [ -49.730048514370075, -21.663928738535301 ] } },
{ "type": "Feature", "properties": { "name": "Fazenda São João Airport" }, "geometry": { "type": "Point", "coordinates": [ -49.62766858845599, -14.246654900571007 ] } },
{ "type": "Feature", "properties": { "name": "Pouso na Serra" }, "geometry": { "type": "Point", "coordinates": [ -49.578455663451649, -27.863101466124046 ] } },
{ "type": "Feature", "properties": { "name": "Araguacema Airport" }, "geometry": { "type": "Point", "coordinates": [ -49.557615466304789, -8.837361650589438 ] } },
{ "type": "Feature", "properties": { "name": "Aeroporto Diomício Freitas" }, "geometry": { "type": "Point", "coordinates": [ -49.423931619315624, -28.725140785655931 ] } },
{ "type": "Feature", "properties": { "name": "Aeroporto de São José do Rio Preto" }, "geometry": { "type": "Point", "coordinates": [ -49.407867823975231, -20.816792258462456 ] } },
{ "type": "Feature", "properties": { "name": "Aeroclube de Campo Magro" }, "geometry": { "type": "Point", "coordinates": [ -49.40894088753884, -25.388822903929267 ] } },
{ "type": "Feature", "properties": { "name": "Arnapar Airport" }, "geometry": { "type": "Point", "coordinates": [ -49.400010005598716, -16.536494961898434 ] } },
{ "type": "Feature", "properties": { "name": "Fazenda Santa Inês" }, "geometry": { "type": "Point", "coordinates": [ -49.388582643480859, -20.880236322904473 ] } },
{ "type": "Feature", "properties": { "name": "Aeródromo Nacional de Aviação" }, "geometry": { "type": "Point", "coordinates": [ -49.347394587827651, -16.625600126853058 ] } },
{ "type": "Feature", "properties": { "name": "Itararé Airport" }, "geometry": { "type": "Point", "coordinates": [ -49.327723072458639, -24.135073582166864 ] } },
{ "type": "Feature", "properties": { "name": "Aeroporto de Conceição do Araguáia" }, "geometry": { "type": "Point", "coordinates": [ -49.302858385514739, -8.34903229406626 ] } },
{ "type": "Feature", "properties": { "name": "Clube de Marte Ibirá de Pará-Quedismo" }, "geometry": { "type": "Point", "coordinates": [ -49.22400730558094, -21.091446197239634 ] } },
{ "type": "Feature", "properties": { "name": "Dezoito Airport" }, "geometry": { "type": "Point", "coordinates": [ -49.199158515355819, -16.438643066854773 ] } },
{ "type": "Feature", "properties": { "name": "Aeroporto Internacional de Curitiba - Afonso Pena" }, "geometry": { "type": "Point", "coordinates": [ -49.17307212379054, -25.531801436015353 ] } },
{ "type": "Feature", "properties": { "name": "Aeroporto Fazenda Constância" }, "geometry": { "type": "Point", "coordinates": [ -49.159646463932958, -20.513767922496957 ] } },
{ "type": "Feature", "properties": { "name": "Gurupi Airport" }, "geometry": { "type": "Point", "coordinates": [ -49.136587508969114, -11.739181199223598 ] } },
{ "type": "Feature", "properties": { "name": "Aeroporto de Marabá" }, "geometry": { "type": "Point", "coordinates": [ -49.138958687379642, -5.369493036192102 ] } },
{ "type": "Feature", "properties": { "name": "Goianésia Airport" }, "geometry": { "type": "Point", "coordinates": [ -49.134914951534896, -15.342464514088386 ] } },
{ "type": "Feature", "properties": { "name": "Aeroporto de Blumenau" }, "geometry": { "type": "Point", "coordinates": [ -49.093638148479229, -26.831814573132807 ] } },
{ "type": "Feature", "properties": { "name": "Aeroporto Estadual Moussa Nakhal Tobias | Bauru\/Arealva" }, "geometry": { "type": "Point", "coordinates": [ -49.073512866134912, -22.158314577276396 ] } },
{ "type": "Feature", "properties": { "name": "Aeroclube Comandante João Ribeiro de Barros" }, "geometry": { "type": "Point", "coordinates": [ -49.053235340179, -22.345492369070385 ] } },
{ "type": "Feature", "properties": { "name": "Aeroporto da Fazenda Vale Verde" }, "geometry": { "type": "Point", "coordinates": [ -48.995322400926774, -19.672269357129924 ] } },
{ "type": "Feature", "properties": { "name": "Aeroporto Regional Avaré-Arandu" }, "geometry": { "type": "Point", "coordinates": [ -48.98751321059089, -23.092354186334131 ] } },
{ "type": "Feature", "properties": { "name": "Aeroporto de Anápolis" }, "geometry": { "type": "Point", "coordinates": [ -48.965056248322497, -16.233847640409678 ] } },
{ "type": "Feature", "properties": { "name": "Aeroporto Risoleta Guimarães Tolentino Neves" }, "geometry": { "type": "Point", "coordinates": [ -48.960017528965331, -20.004390411117143 ] } },
{ "type": "Feature", "properties": { "name": "Anápolis Airport" }, "geometry": { "type": "Point", "coordinates": [ -48.927245395978261, -16.36136134533713 ] } },
{ "type": "Feature", "properties": { "name": "Itapeva Airport" }, "geometry": { "type": "Point", "coordinates": [ -48.881367115930303, -23.942319056383401 ] } },
{ "type": "Feature", "properties": { "name": "Aeroporto Campo Comandantes" }, "geometry": { "type": "Point", "coordinates": [ -48.816489563201891, -26.983207600893991 ] } },
{ "type": "Feature", "properties": { "name": "Aeroporto de Joinville Lauro Carneiro de Loyola" }, "geometry": { "type": "Point", "coordinates": [ -48.797720565246088, -26.224669776475736 ] } },
{ "type": "Feature", "properties": { "name": "Lençóis Paulista" }, "geometry": { "type": "Point", "coordinates": [ -48.773467190009193, -22.576877710687366 ] } },
{ "type": "Feature", "properties": { "name": "Pederneiras Airport" }, "geometry": { "type": "Point", "coordinates": [ -48.774251644136385, -22.306913714534844 ] } },
{ "type": "Feature", "properties": { "name": "Bariri Airport" }, "geometry": { "type": "Point", "coordinates": [ -48.707288982941478, -22.068974732609021 ] } },
{ "type": "Feature", "properties": { "name": "Fazenda Entre Rios" }, "geometry": { "type": "Point", "coordinates": [ -48.659499639368846, -21.878319667980293 ] } },
{ "type": "Feature", "properties": { "name": "Aeroporto Internacional de Navegantes Ministro Victor Konder" }, "geometry": { "type": "Point", "coordinates": [ -48.650291231639649, -26.878945763998814 ] } },
{ "type": "Feature", "properties": { "name": "Chafei Amsei Airport" }, "geometry": { "type": "Point", "coordinates": [ -48.594317630321527, -20.583961565863493 ] } },
{ "type": "Feature", "properties": { "name": "Aeroporto de São Manuel" }, "geometry": { "type": "Point", "coordinates": [ -48.577051183642936, -22.694052466022001 ] } },
{ "type": "Feature", "properties": { "name": "Aeroporto Internacional Hercílio Luz" }, "geometry": { "type": "Point", "coordinates": [ -48.543442392622339, -27.670099915228725 ] } },
{ "type": "Feature", "properties": { "name": "AEROPORTO DE MONTE ALTO" }, "geometry": { "type": "Point", "coordinates": [ -48.523722605749107, -21.258367959209956 ] } },
{ "type": "Feature", "properties": { "name": "Niquelândia Airport" }, "geometry": { "type": "Point", "coordinates": [ -48.491489855838459, -14.43531138800342 ] } },
{ "type": "Feature", "properties": { "name": "Aeroporto Internacional de Belém - Val de Cans" }, "geometry": { "type": "Point", "coordinates": [ -48.477043804844158, -1.381619397391207 ] } },
{ "type": "Feature", "properties": { "name": "Brigadeiro Protásio de Oliveira" }, "geometry": { "type": "Point", "coordinates": [ -48.459733251926714, -1.415521522725637 ] } },
{ "type": "Feature", "properties": { "name": "EMBRAER - Unidade Gavião Peixoto" }, "geometry": { "type": "Point", "coordinates": [ -48.404378687705851, -21.773053138286066 ] } },
{ "type": "Feature", "properties": { "name": "Aeroporto de Capão Bonito" }, "geometry": { "type": "Point", "coordinates": [ -48.356619990854782, -24.034219055869023 ] } },
{ "type": "Feature", "properties": { "name": "Usina Santa Adélia" }, "geometry": { "type": "Point", "coordinates": [ -48.31600695340903, -21.332199602247655 ] } },
{ "type": "Feature", "properties": { "name": "Fazenda Cruzeiro" }, "geometry": { "type": "Point", "coordinates": [ -48.315805942736681, -21.406059427290099 ] } },
{ "type": "Feature", "properties": { "name": "Minaçu Airport" }, "geometry": { "type": "Point", "coordinates": [ -48.195192961642704, -13.548279496540491 ] } },
{ "type": "Feature", "properties": { "name": "Aeroporto Estadual de Araraquara" }, "geometry": { "type": "Point", "coordinates": [ -48.134160347652248, -21.811588744979019 ] } },
{ "type": "Feature", "properties": { "name": "Usina São Martinho" }, "geometry": { "type": "Point", "coordinates": [ -48.114283023157391, -21.339749842549377 ] } },
{ "type": "Feature", "properties": { "name": "Aeroporto Mário de Almeida Franco" }, "geometry": { "type": "Point", "coordinates": [ -47.965657098878104, -19.764147828018075 ] } },
{ "type": "Feature", "properties": { "name": "Usina Santa Lydia" }, "geometry": { "type": "Point", "coordinates": [ -47.920612063671626, -21.203495782821289 ] } },
{ "type": "Feature", "properties": { "name": "Catalão Airport" }, "geometry": { "type": "Point", "coordinates": [ -47.899481541743185, -18.218547153202032 ] } },
{ "type": "Feature", "properties": { "name": "Aeroporto Fazenda Mosquito" }, "geometry": { "type": "Point", "coordinates": [ -47.889706821174883, -20.746865371855495 ] } },
{ "type": "Feature", "properties": { "name": "Aeroporto Estância Colorado" }, "geometry": { "type": "Point", "coordinates": [ -47.85977084186306, -20.761731121992565 ] } },
{ "type": "Feature", "properties": { "name": "Aeroporto Estadual Doutor Leite Lopes" }, "geometry": { "type": "Point", "coordinates": [ -47.776012613893492, -21.136268237133585 ] } },
{ "type": "Feature", "properties": { "name": "Fazenda Botelho" }, "geometry": { "type": "Point", "coordinates": [ -47.726732604555707, -15.937666698134702 ] } },
{ "type": "Feature", "properties": { "name": "Tietê Airport" }, "geometry": { "type": "Point", "coordinates": [ -47.723683836426503, -23.104615446046996 ] } },
{ "type": "Feature", "properties": { "name": "Centro Nacional de Paraquedismo" }, "geometry": { "type": "Point", "coordinates": [ -47.694795493232746, -23.298049657677279 ] } },
{ "type": "Feature", "properties": { "name": "Rio Claro Airport" }, "geometry": { "type": "Point", "coordinates": [ -47.562621941387512, -22.429841683853649 ] } },
{ "type": "Feature", "properties": { "name": "Aeroporto de Sorocaba" }, "geometry": { "type": "Point", "coordinates": [ -47.488957945786424, -23.47916003978235 ] } },
{ "type": "Feature", "properties": { "name": "Aeroporto de Tocantinópolis" }, "geometry": { "type": "Point", "coordinates": [ -47.471888023829116, -6.333693043582461 ] } },
{ "type": "Feature", "properties": { "name": "Pirassununga" }, "geometry": { "type": "Point", "coordinates": [ -47.421757784118043, -22.026938456163915 ] } },
{ "type": "Feature", "properties": { "name": "Aeroporto Estadual Tenente Lund Presotto" }, "geometry": { "type": "Point", "coordinates": [ -47.383396346909166, -20.591583097536169 ] } },
{ "type": "Feature", "properties": { "name": "Leme Airport" }, "geometry": { "type": "Point", "coordinates": [ -47.38133797429763, -22.225748360385879 ] } },
{ "type": "Feature", "properties": { "name": "Fazenda Amália Airport" }, "geometry": { "type": "Point", "coordinates": [ -47.370609431375094, -21.444113926489063 ] } },
{ "type": "Feature", "properties": { "name": "Formosa Airport" }, "geometry": { "type": "Point", "coordinates": [ -47.345813801204933, -15.555285681826129 ] } },
{ "type": "Feature", "properties": { "name": "Americana Airport" }, "geometry": { "type": "Point", "coordinates": [ -47.268773866900659, -22.755454405891381 ] } },
{ "type": "Feature", "properties": { "name": "Aeroporto Internacional de Viracopos" }, "geometry": { "type": "Point", "coordinates": [ -47.138704500221472, -23.010357808405733 ] } },
{ "type": "Feature", "properties": { "name": "São Sebastião do Paraíso Airport" }, "geometry": { "type": "Point", "coordinates": [ -46.983388498457536, -20.948683690865501 ] } },
{ "type": "Feature", "properties": { "name": "Jundiaí Airport" }, "geometry": { "type": "Point", "coordinates": [ -46.943864795549302, -23.180888650912969 ] } },
{ "type": "Feature", "properties": { "name": "Aeroporto Municipal José Figueiredo" }, "geometry": { "type": "Point", "coordinates": [ -46.660961967839867, -20.732718892572318 ] } },
{ "type": "Feature", "properties": { "name": "Aeroporto de Congonhas" }, "geometry": { "type": "Point", "coordinates": [ -46.65669612043034, -23.627845444732792 ] } },
{ "type": "Feature", "properties": { "name": "Aeroporto de Bambuí" }, "geometry": { "type": "Point", "coordinates": [ -45.972446406604909, -20.0365141648121 ] } },
{ "type": "Feature", "properties": { "name": "Aeroporto de Luíz Eduardo Magalhães" }, "geometry": { "type": "Point", "coordinates": [ -45.895353269474619, -12.106152292072455 ] } },
{ "type": "Feature", "properties": { "name": "Aerovale" }, "geometry": { "type": "Point", "coordinates": [ -45.661421438567224, -23.130650923669336 ] } },
{ "type": "Feature", "properties": { "name": "Aeroporto Leda Mello Resende" }, "geometry": { "type": "Point", "coordinates": [ -45.495301798465555, -21.372111362775289 ] } },
{ "type": "Feature", "properties": { "name": "Aeroporto Mello Vianna" }, "geometry": { "type": "Point", "coordinates": [ -45.268815701461122, -21.790182446302648 ] } },
{ "type": "Feature", "properties": { "name": "Guaratinguetá Airport" }, "geometry": { "type": "Point", "coordinates": [ -45.204881361555017, -22.791346597161912 ] } },
{ "type": "Feature", "properties": { "name": "Aeroporto Formosa do Rio Pret" }, "geometry": { "type": "Point", "coordinates": [ -45.187730276139568, -11.021133612997227 ] } },
{ "type": "Feature", "properties": { "name": "São Lourenço Airport" }, "geometry": { "type": "Point", "coordinates": [ -45.044705222356704, -22.091616160824312 ] } },
{ "type": "Feature", "properties": { "name": "Aeroporto de Pompéu" }, "geometry": { "type": "Point", "coordinates": [ -45.020398593482916, -19.200965806489016 ] } },
{ "type": "Feature", "properties": { "name": "Caxambu Airport" }, "geometry": { "type": "Point", "coordinates": [ -44.969078429003112, -21.91768587102279 ] } },
{ "type": "Feature", "properties": { "name": "Lavras Airport" }, "geometry": { "type": "Point", "coordinates": [ -44.964609123477942, -21.241011937035871 ] } },
{ "type": "Feature", "properties": { "name": "Aeroporto de Pirapora" }, "geometry": { "type": "Point", "coordinates": [ -44.858790716283785, -17.314066413838027 ] } },
{ "type": "Feature", "properties": { "name": "Aeroporto Municipal Arnaud Marinho" }, "geometry": { "type": "Point", "coordinates": [ -44.601524602004254, -19.842662663761068 ] } },
{ "type": "Feature", "properties": { "name": "Resende Airport" }, "geometry": { "type": "Point", "coordinates": [ -44.478976323441678, -22.477042380161507 ] } },
{ "type": "Feature", "properties": { "name": "Aeroporto de Januária" }, "geometry": { "type": "Point", "coordinates": [ -44.385510925726081, -15.473821936038519 ] } },
{ "type": "Feature", "properties": { "name": "Fazenda Pedra Branca Airport" }, "geometry": { "type": "Point", "coordinates": [ -44.288896209373291, -22.903392244575976 ] } },
{ "type": "Feature", "properties": { "name": "Itapecuru Airport" }, "geometry": { "type": "Point", "coordinates": [ -44.020186772067213, -4.51340692619041 ] } },
{ "type": "Feature", "properties": { "name": "Aeroporto Carlos Prates" }, "geometry": { "type": "Point", "coordinates": [ -43.988521834232415, -19.909397688152438 ] } },
{ "type": "Feature", "properties": { "name": "Aeroporto Internacional Tancredo Neves" }, "geometry": { "type": "Point", "coordinates": [ -43.968515475952302, -19.63311000416634 ] } },
{ "type": "Feature", "properties": { "name": "Aeroporto Carlos Drummond de Andrade" }, "geometry": { "type": "Point", "coordinates": [ -43.950418292158034, -19.850557126942164 ] } },
{ "type": "Feature", "properties": { "name": "SBBQ" }, "geometry": { "type": "Point", "coordinates": [ -43.761277929935659, -21.26693914288348 ] } },
{ "type": "Feature", "properties": { "name": "Aeroporto Regional de Guadalupe" }, "geometry": { "type": "Point", "coordinates": [ -43.580369456520991, -6.783314217504885 ] } },
{ "type": "Feature", "properties": { "name": "Helimar - Heliporto do Recreio" }, "geometry": { "type": "Point", "coordinates": [ -43.446862500190853, -23.008169992844167 ] } },
{ "type": "Feature", "properties": { "name": "Bom Jesus da Lapa Airport" }, "geometry": { "type": "Point", "coordinates": [ -43.408839231590122, -13.261763193945431 ] } },
{ "type": "Feature", "properties": { "name": "Campo Délio Jardim de Mattos" }, "geometry": { "type": "Point", "coordinates": [ -43.383444675511171, -22.875450588095866 ] } },
{ "type": "Feature", "properties": { "name": "Zona de Pouso de Para-Quedas da Barra" }, "geometry": { "type": "Point", "coordinates": [ -43.379558848651662, -22.993101337711966 ] } },
{ "type": "Feature", "properties": { "name": "Aeroporto de Jacarepaguá - Roberto Marinho" }, "geometry": { "type": "Point", "coordinates": [ -43.3711971996754, -22.987112067387308 ] } },
{ "type": "Feature", "properties": { "name": "Aeroporto Internacional do Rio de Janeiro - Antonio Carlos Jobim" }, "geometry": { "type": "Point", "coordinates": [ -43.237778628257466, -22.808193103218514 ] } },
{ "type": "Feature", "properties": { "name": "Aeroporto Internacional do Rio de Janeiro - Antonio Carlos Jobim" }, "geometry": { "type": "Point", "coordinates": [ -43.264552647506939, -22.809767413732722 ] } },
{ "type": "Feature", "properties": { "name": "Aeroporto Internacional do Rio de Janeiro - Antonio Carlos Jobim" }, "geometry": { "type": "Point", "coordinates": [ -43.251557791624641, -22.811322995182763 ] } },
{ "type": "Feature", "properties": { "name": "Aeroporto Internacional do Rio de Janeiro - Antonio Carlos Jobim" }, "geometry": { "type": "Point", "coordinates": [ -43.246494667248093, -22.814719025956617 ] } },
{ "type": "Feature", "properties": { "name": "Aeroporto Internacional do Rio de Janeiro - Antonio Carlos Jobim" }, "geometry": { "type": "Point", "coordinates": [ -43.236748141986538, -22.825152594490156 ] } },
{ "type": "Feature", "properties": { "name": "Aeroporto Internacional do Rio de Janeiro - Antonio Carlos Jobim" }, "geometry": { "type": "Point", "coordinates": [ -43.239979928728879, -22.824311708084608 ] } },
{ "type": "Feature", "properties": { "name": "Aeroporto Internacional do Rio de Janeiro - Antonio Carlos Jobim" }, "geometry": { "type": "Point", "coordinates": [ -43.238518814314311, -22.832457314277015 ] } },
{ "type": "Feature", "properties": { "name": "Aeroporto Internacional do Rio de Janeiro - Antonio Carlos Jobim" }, "geometry": { "type": "Point", "coordinates": [ -43.237590180677358, -22.821630135178896 ] } },
{ "type": "Feature", "properties": { "name": "Aeroporto Regional Presidente Itamar Franco" }, "geometry": { "type": "Point", "coordinates": [ -43.167161647068987, -21.510965949515558 ] } },
{ "type": "Feature", "properties": { "name": "Aeroporto de Viçosa" }, "geometry": { "type": "Point", "coordinates": [ -42.840585348819374, -20.746436106589677 ] } },
{ "type": "Feature", "properties": { "name": "Aeroporto de Teresina \/ Senador Petrônio Portella" }, "geometry": { "type": "Point", "coordinates": [ -42.821374730980118, -5.063471825538483 ] } },
{ "type": "Feature", "properties": { "name": "Pista de Pouso" }, "geometry": { "type": "Point", "coordinates": [ -42.630065585597947, -19.751905469208321 ] } },
{ "type": "Feature", "properties": { "name": "Aeroporto de Saquarema" }, "geometry": { "type": "Point", "coordinates": [ -42.505919763821829, -22.928152262559429 ] } },
{ "type": "Feature", "properties": { "name": "Aeroporto da Usiminas" }, "geometry": { "type": "Point", "coordinates": [ -42.48768465559715, -19.470819146575852 ] } },
{ "type": "Feature", "properties": { "name": "Cristiano Ferreira Varella Airport" }, "geometry": { "type": "Point", "coordinates": [ -42.39461097625567, -21.126080975823463 ] } },
{ "type": "Feature", "properties": { "name": "Aeroporto de Paramirim" }, "geometry": { "type": "Point", "coordinates": [ -42.229009271831927, -13.490593423345551 ] } },
{ "type": "Feature", "properties": { "name": "Umberto Modiano Airport" }, "geometry": { "type": "Point", "coordinates": [ -41.962941883315096, -22.770559444965745 ] } },
{ "type": "Feature", "properties": { "name": "Aeroporto de Rio de Contas" }, "geometry": { "type": "Point", "coordinates": [ -41.79088470022505, -13.583145418950295 ] } },
{ "type": "Feature", "properties": { "name": "Aeroporto Juscelino Kubitscheck" }, "geometry": { "type": "Point", "coordinates": [ -41.514024367986771, -17.892683743247446 ] } },
{ "type": "Feature", "properties": { "name": "Aeroporto Pedro Otacílio Figueredo" }, "geometry": { "type": "Point", "coordinates": [ -40.863484209308332, -14.865085831817707 ] } },
{ "type": "Feature", "properties": { "name": "JFM Aeroporto de Campo Formoso" }, "geometry": { "type": "Point", "coordinates": [ -40.487390946497079, -10.493023684992833 ] } },
{ "type": "Feature", "properties": { "name": "Aeroporto Vigílio Távora" }, "geometry": { "type": "Point", "coordinates": [ -40.336943566491165, -3.67901760015636 ] } },
{ "type": "Feature", "properties": { "name": "Nanuque Airport" }, "geometry": { "type": "Point", "coordinates": [ -40.32911616901152, -17.823210406240658 ] } },
{ "type": "Feature", "properties": { "name": "Aeroclube João Monteiro" }, "geometry": { "type": "Point", "coordinates": [ -40.331895913911488, -20.423550886409487 ] } },
{ "type": "Feature", "properties": { "name": "Aeroporto Eurico de Aguiar Salles" }, "geometry": { "type": "Point", "coordinates": [ -40.281699247666438, -20.258868923127118 ] } },
{ "type": "Feature", "properties": { "name": "Ouricuri Airport" }, "geometry": { "type": "Point", "coordinates": [ -40.091691647064756, -7.876348265932333 ] } },
{ "type": "Feature", "properties": { "name": "Aeroporto de Linhares" }, "geometry": { "type": "Point", "coordinates": [ -40.069298300784375, -19.356737761078406 ] } },
{ "type": "Feature", "properties": { "name": "Aeroporto Orlando Bezerra de Menezes" }, "geometry": { "type": "Point", "coordinates": [ -39.262647625683677, -7.220614669693105 ] } },
{ "type": "Feature", "properties": { "name": "Caravelas Airport" }, "geometry": { "type": "Point", "coordinates": [ -39.252327884172168, -17.65095869874899 ] } },
{ "type": "Feature", "properties": { "name": "Quixadá Airport" }, "geometry": { "type": "Point", "coordinates": [ -38.987381063478011, -4.979050049561444 ] } },
{ "type": "Feature", "properties": { "name": "Aeroporto Internacional Pinto Martins" }, "geometry": { "type": "Point", "coordinates": [ -38.540687036861655, -3.778617572100093 ] } },
{ "type": "Feature", "properties": { "name": "Aeroporto Pinto Martins" }, "geometry": { "type": "Point", "coordinates": [ -38.535120150742941, -3.772956275645909 ] } },
{ "type": "Feature", "properties": { "name": "Aeroporto de Conceição" }, "geometry": { "type": "Point", "coordinates": [ -38.496988762664884, -7.558316876464709 ] } },
{ "type": "Feature", "properties": { "name": "Aeroporto do Brejo das Freiras" }, "geometry": { "type": "Point", "coordinates": [ -38.495667920798439, -6.677630987007886 ] } },
{ "type": "Feature", "properties": { "name": "Aeroporto de Cipó" }, "geometry": { "type": "Point", "coordinates": [ -38.486872979752604, -11.125345708647281 ] } },
{ "type": "Feature", "properties": { "name": "Aeroporto Internacional de Salvador - Deputado Luís Eduardo Magalhães" }, "geometry": { "type": "Point", "coordinates": [ -38.334814302677756, -12.914501095445585 ] } },
{ "type": "Feature", "properties": { "name": "Aeroporto Paulo Afonso" }, "geometry": { "type": "Point", "coordinates": [ -38.25014547689716, -9.400717986163524 ] } },
{ "type": "Feature", "properties": { "name": "Aeroporto de Sousa" }, "geometry": { "type": "Point", "coordinates": [ -38.23489295208762, -6.78508349450026 ] } },
{ "type": "Feature", "properties": { "name": "Aeroporto de Itaporanga" }, "geometry": { "type": "Point", "coordinates": [ -38.113303193135472, -7.311226296156372 ] } },
{ "type": "Feature", "properties": { "name": "Aeroporto Brigadeiro Firmino Ayres" }, "geometry": { "type": "Point", "coordinates": [ -37.251940203196845, -7.038834991589602 ] } },
{ "type": "Feature", "properties": { "name": "Garanhuns Airport" }, "geometry": { "type": "Point", "coordinates": [ -36.470141750229182, -8.836098686348706 ] } },
{ "type": "Feature", "properties": { "name": "Aeroporto Oscar Laranjeiras" }, "geometry": { "type": "Point", "coordinates": [ -36.013393424544752, -8.282479869686041 ] } },
{ "type": "Feature", "properties": { "name": "Aeroporto Internacional Governador Aluízio Alves" }, "geometry": { "type": "Point", "coordinates": [ -35.373119903528107, -5.761063057953558 ] } },
{ "type": "Feature", "properties": { "name": "Aeroporto Internacional Presidente Castro Pinto" }, "geometry": { "type": "Point", "coordinates": [ -34.950867547611018, -7.147662950227346 ] } },
{ "type": "Feature", "properties": { "name": "Aeroclube da Paraíba" }, "geometry": { "type": "Point", "coordinates": [ -34.841715605397191, -7.091886288324748 ] } }
]
}
